
$GPGGA,0595,4046.42,N,4046.42,W,1,3,1.5,258.333719971,M,-32,M,,,A
$GPRMC,0595,A,4046.42,N,4046.42,W,0.00,19.03,201527,1.14,W,A
$GPGSA,A,1,,,,,,,,,,,,,1,1,1
$GPGGA,1024,4046.42,N,4046.42,W,1,3,1.5,258.333738574,M,-32,M,,,A
$GPRMC,1024,A,4046.42,N,4046.42,W,0.00,19.03,201527,1.14,W,A
$GPGSA,A,1,,,,,,,,,,,,,1,1,1
$GPGGA,1024,4046.42,N,4046.42,W,1,3,1.5,258.333738574,M,-32,M,,,A
$GPRMC,1024,A,4046.42,N,4046.42,W,0.00,19.03,201527,1.14,W,A
$GPGSA,A,1,,,,,,,,,,,,,1,1,1
$GPGGA,1025,4046.42,N,4046.42,W,1,3,1.5,258.333738574,M,-32,M,,,A
$GPRMC,1025,A,4046.42,N,4046.42,W,0.00,19.03,201527,1.14,W,A
$GPGSA,A,1,,,,,,,,,,,,,1,1,1
$GPGGA,1026,4046.42,N,4046.42,W,1,3,1.5,258.333738574,M,-32,M,,,A
$GPRMC,1026,A,4046.42,N,4046.42,W,0.00,19.03,201527,1.14,W,A
$GPGSA,A,1,,,,,,,,,,,,,1,1,1
$GPGGA,1026,4046.42,N,4046.42,W,1,3,1.5,258.333738574,M,-32,M,,,A
$GPRMC,1026,A,4046.42,N,4046.42,W,0.00,19.03,201527,1.14,W,A
$GPGSA,A,1,,,,,,,,,,,,,1,1,1
$GPGGA,1027,4046.42,N,4046.42,W,1,3,1.5,258.333738574,M,-32,M,,,A
$GPRMC,1027,A,4046.42,N,4046.42,W,0.00,19.03,201527,1.14,W,A
$GPGSA,A,1,,,,,,,,,,,,,1,1,1
$GPGGA,1028,4046.42,N,4046.42,W,1,3,1.5,258.333738574,M,-32,M,,,A
$GPRMC,1028,A,4046.42,N,4046.42,W,0.00,19.03,201527,1.14,W,A
$GPGSA,A,1,,,,,,,,,,,,,1,1,1
$GPGGA,1029,4046.42,N,4046.42,W,1,3,1.5,258.333738574,M,-32,M,,,A
$GPRMC,1029,A,4046.42,N,4046.42,W,0.00,19.03,201527,1.14,W,A
$GPGSA,A,1,,,,,,,,,,,,,1,1,1
$GPGGA,1029,4046.42,N,4046.42,W,1,3,1.5,258.333719971,M,-32,M,,,A
$GPRMC,1029,A,4046.42,N,4046.42,W,0.00,19.03,201527,1.14,W,A
$GPGSA,A,1,,,,,,,,,,,,,1,1,1
$GPGGA,1030,4046.42,N,4046.42,W,1,3,1.5,258.333719971,M,-32,M,,,A
$GPRMC,1030,A,4046.42,N,4046.42,W,0.00,19.03,201527,1.14,W,A
$GPGSA,A,1,,,,,,,,,,,,,1,1,1
$GPGGA,1031,4046.42,N,4046.42,W,1,3,1.5,258.333719971,M,-32,M,,,A
$GPRMC,1031,A,4046.42,N,4046.42,W,0.00,19.03,201527,1.14,W,A
$GPGSA,A,1,,,,,,,,,,,,,1,1,1
$GPGGA,1031,4046.42,N,4046.42,W,1,3,1.5,258.333719971,M,-32,M,,,A
$GPRMC,1031,A,4046.42,N,4046.42,W,0.00,19.03,201527,1.14,W,A
$GPGSA,A,1,,,,,,,,,,,,,1,1,1
$GPGGA,1032,4046.42,N,4046.42,W,1,3,1.5,258.333738574,M,-32,M,,,A
$GPRMC,1032,A,4046.42,N,4046.42,W,0.00,19.03,201527,1.14,W,A
$GPGSA,A,1,,,,,,,,,,,,,1,1,1
$GPGGA,1033,4046.42,N,4046.42,W,1,3,1.5,258.333738574,M,-32,M,,,A
$GPRMC,1033,A,4046.42,N,4046.42,W,0.00,19.03,201527,1.14,W,A
$GPGSA,A,1,,,,,,,,,,,,,1,1,1
$GPGGA,1033,4046.42,N,4046.42,W,1,3,1.5,258.333738574,M,-32,M,,,A
$GPRMC,1033,A,4046.42,N,4046.42,W,0.00,19.03,201527,1.14,W,A
$GPGSA,A,1,,,,,,,,,,,,,1,1,1
$GPGGA,1034,4046.42,N,4046.42,W,1,3,1.5,258.333738574,M,-32,M,,,A
$GPRMC,1034,A,4046.42,N,4046.42,W,0.00,19.03,201527,1.14,W,A
$GPGSA,A,1,,,,,,,,,,,,,1,1,1
$GPGGA,1035,4046.42,N,4046.42,W,1,3,1.5,258.333738574,M,-32,M,,,A
$GPRMC,1035,A,4046.42,N,4046.42,W,0.00,19.03,201527,1.14,W,A
$GPGSA,A,1,,,,,,,,,,,,,1,1,1
$GPGGA,1036,4046.42,N,4046.42,W,1,3,1.5,258.333738574,M,-32,M,,,A
$GPRMC,1036,A,4046.42,N,4046.42,W,0.00,19.03,201527,1.14,W,A
$GPGSA,A,1,,,,,,,,,,,,,1,1,1
$GPGGA,1036,4046.42,N,4046.42,W,1,3,1.5,258.333738574,M,-32,M,,,A
$GPRMC,1036,A,4046.42,N,4046.42,W,0.00,19.03,201527,1.14,W,A
$GPGSA,A,1,,,,,,,,,,,,,1,1,1
$GPGGA,1037,4046.42,N,4046.42,W,1,3,1.5,258.333738574,M,-32,M,,,A
$GPRMC,1037,A,4046.42,N,4046.42,W,0.00,19.03,201527,1.14,W,A
$GPGSA,A,1,,,,,,,,,,,,,1,1,1
$GPGGA,1038,4046.42,N,4046.42,W,1,3,1.5,258.333738574,M,-32,M,,,A
$GPRMC,1038,A,4046.42,N,4046.42,W,0.00,19.03,201527,1.14,W,A
$GPGSA,A,1,,,,,,,,,,,,,1,1,1
$GPGGA,1038,4046.42,N,4046.42,W,1,3,1.5,258.333719971,M,-32,M,,,A
$GPRMC,1038,A,4046.42,N,4046.42,W,0.00,19.03,201527,1.14,W,A
$GPGSA,A,1,,,,,,,,,,,,,1,1,1
$GPGGA,1039,4046.42,N,4046.42,W,1,3,1.5,258.333719971,M,-32,M,,,A
$GPRMC,1039,A,4046.42,N,4046.42,W,0.00,19.03,201527,1.14,W,A
$GPGSA,A,1,,,,,,,,,,,,,1,1,1
$GPGGA,1040,4046.42,N,4046.42,W,1,3,1.5,258.333719971,M,-32,M,,,A
$GPRMC,1040,A,4046.42,N,4046.42,W,0.00,19.03,201527,1.14,W,A
$GPGSA,A,1,,,,,,,,,,,,,1,1,1
$GPGGA,1040,4046.42,N,4046.42,W,1,3,1.5,258.333738574,M,-32,M,,,A
$GPRMC,1040,A,4046.42,N,4046.42,W,0.00,19.03,201527,1.14,W,A
$GPGSA,A,1,,,,,,,,,,,,,1,1,1
$GPGGA,1041,4046.42,N,4046.42,W,1,3,1.5,258.333738574,M,-32,M,,,A
$GPRMC,1041,A,4046.42,N,4046.42,W,0.00,19.03,201527,1.14,W,A
$GPGSA,A,1,,,,,,,,,,,,,1,1,1
$GPGGA,1042,4046.42,N,4046.42,W,1,3,1.5,258.333738574,M,-32,M,,,A
$GPRMC,1042,A,4046.42,N,4046.42,W,0.00,19.03,201527,1.14,W,A
$GPGSA,A,1,,,,,,,,,,,,,1,1,1
$GPGGA,1043,4046.42,N,4046.42,W,1,3,1.5,258.333738574,M,-32,M,,,A
$GPRMC,1043,A,4046.42,N,4046.42,W,0.00,19.03,201527,1.14,W,A
$GPGSA,A,1,,,,,,,,,,,,,1,1,1
$GPGGA,1043,4046.42,N,4046.42,W,1,3,1.5,258.333738574,M,-32,M,,,A
$GPRMC,1043,A,4046.42,N,4046.42,W,0.00,19.03,201527,1.14,W,A
$GPGSA,A,1,,,,,,,,,,,,,1,1,1
$GPGGA,1044,4046.42,N,4046.42,W,1,3,1.5,258.333738574,M,-32,M,,,A
$GPRMC,1044,A,4046.42,N,4046.42,W,0.00,19.03,201527,1.14,W,A
$GPGSA,A,1,,,,,,,,,,,,,1,1,1
$GPGGA,1045,4046.42,N,4046.42,W,1,3,1.5,258.333738574,M,-32,M,,,A
$GPRMC,1045,A,4046.42,N,4046.42,W,0.00,19.03,201527,1.14,W,A
$GPGSA,A,1,,,,,,,,,,,,,1,1,1
$GPGGA,1045,4046.42,N,4046.42,W,1,3,1.5,258.333738574,M,-32,M,,,A
$GPRMC,1045,A,4046.42,N,4046.42,W,0.00,19.03,201527,1.14,W,A
$GPGSA,A,1,,,,,,,,,,,,,1,1,1
$GPGGA,1046,4046.42,N,4046.42,W,1,3,1.5,258.333738574,M,-32,M,,,A
$GPRMC,1046,A,4046.42,N,4046.42,W,0.00,19.03,201527,1.14,W,A
$GPGSA,A,1,,,,,,,,,,,,,1,1,1
$GPGGA,1047,4046.42,N,4046.42,W,1,3,1.5,258.333738574,M,-32,M,,,A
$GPRMC,1047,A,4046.42,N,4046.42,W,0.00,19.03,201527,1.14,W,A
$GPGSA,A,1,,,,,,,,,,,,,1,1,1
$GPGGA,1047,4046.42,N,4046.42,W,1,3,1.5,258.333738574,M,-32,M,,,A
$GPRMC,1047,A,4046.42,N,4046.42,W,0.00,19.03,201527,1.14,W,A
$GPGSA,A,1,,,,,,,,,,,,,1,1,1
$GPGGA,1048,4046.42,N,4046.42,W,1,3,1.5,258.333738574,M,-32,M,,,A
$GPRMC,1048,A,4046.42,N,4046.42,W,0.00,19.03,201527,1.14,W,A
$GPGSA,A,1,,,,,,,,,,,,,1,1,1
$GPGGA,1049,4046.42,N,4046.42,W,1,3,1.5,258.333719971,M,-32,M,,,A
$GPRMC,1049,A,4046.42,N,4046.42,W,0.00,19.03,201527,1.14,W,A
$GPGSA,A,1,,,,,,,,,,,,,1,1,1
$GPGGA,1050,4046.42,N,4046.42,W,1,3,1.5,258.333719971,M,-32,M,,,A
$GPRMC,1050,A,4046.42,N,4046.42,W,0.00,19.03,201527,1.14,W,A
$GPGSA,A,1,,,,,,,,,,,,,1,1,1
$GPGGA,1050,4046.42,N,4046.42,W,1,3,1.5,258.333738574,M,-32,M,,,A
$GPRMC,1050,A,4046.42,N,4046.42,W,0.00,19.03,201527,1.14,W,A
$GPGSA,A,1,,,,,,,,,,,,,1,1,1
$GPGGA,1051,4046.42,N,4046.42,W,1,3,1.5,258.333738574,M,-32,M,,,A
$GPRMC,1051,A,4046.42,N,4046.42,W,0.00,19.03,201527,1.14,W,A
$GPGSA,A,1,,,,,,,,,,,,,1,1,1
$GPGGA,1052,4046.42,N,4046.42,W,1,3,1.5,258.333738574,M,-32,M,,,A
$GPRMC,1052,A,4046.42,N,4046.42,W,0.00,19.03,201527,1.14,W,A
$GPGSA,A,1,,,,,,,,,,,,,1,1,1
$GPGGA,1052,4046.42,N,4046.42,W,1,3,1.5,258.333738574,M,-32,M,,,A
$GPRMC,1052,A,4046.42,N,4046.42,W,0.00,19.03,201527,1.14,W,A
$GPGSA,A,1,,,,,,,,,,,,,1,1,1
$GPGGA,1053,4046.42,N,4046.42,W,1,3,1.5,258.333738574,M,-32,M,,,A
$GPRMC,1053,A,4046.42,N,4046.42,W,0.00,19.03,201527,1.14,W,A
$GPGSA,A,1,,,,,,,,,,,,,1,1,1
$GPGGA,1054,4046.42,N,4046.42,W,1,3,1.5,258.333738574,M,-32,M,,,A
$GPRMC,1054,A,4046.42,N,4046.42,W,0.00,19.03,201527,1.14,W,A
$GPGSA,A,1,,,,,,,,,,,,,1,1,1
$GPGGA,1054,4046.42,N,4046.42,W,1,3,1.5,258.333738574,M,-32,M,,,A
$GPRMC,1054,A,4046.42,N,4046.42,W,0.00,19.03,201527,1.14,W,A
$GPGSA,A,1,,,,,,,,,,,,,1,1,1
$GPGGA,1055,4046.42,N,4046.42,W,1,3,1.5,258.333738574,M,-32,M,,,A
$GPRMC,1055,A,4046.42,N,4046.42,W,0.00,19.03,201527,1.14,W,A
$GPGSA,A,1,,,,,,,,,,,,,1,1,1
$GPGGA,1056,4046.42,N,4046.42,W,1,3,1.5,258.333738574,M,-32,M,,,A
$GPRMC,1056,A,4046.42,N,4046.42,W,0.00,19.03,201527,1.14,W,A
$GPGSA,A,1,,,,,,,,,,,,,1,1,1
$GPGGA,1057,4046.42,N,4046.42,W,1,3,1.5,258.333738574,M,-32,M,,,A
$GPRMC,1057,A,4046.42,N,4046.42,W,0.00,19.03,201527,1.14,W,A
$GPGSA,A,1,,,,,,,,,,,,,1,1,1
$GPGGA,1057,4046.42,N,4046.42,W,1,3,1.5,258.333719971,M,-32,M,,,A
$GPRMC,1057,A,4046.42,N,4046.42,W,0.00,19.03,201527,1.14,W,A
$GPGSA,A,1,,,,,,,,,,,,,1,1,1
$GPGGA,1058,4046.42,N,4046.42,W,1,3,1.5,258.333719971,M,-32,M,,,A
$GPRMC,1058,A,4046.42,N,4046.42,W,0.00,19.03,201527,1.14,W,A
$GPGSA,A,1,,,,,,,,,,,,,1,1,1
$GPGGA,1059,4046.42,N,4046.42,W,1,3,1.5,258.333738574,M,-32,M,,,A
$GPRMC,1059,A,4046.42,N,4046.42,W,0.00,19.03,201527,1.14,W,A
$GPGSA,A,1,,,,,,,,,,,,,1,1,1
$GPGGA,1059,4046.42,N,4046.42,W,1,3,1.5,258.333738574,M,-32,M,,,A
$GPRMC,1059,A,4046.42,N,4046.42,W,0.00,19.03,201527,1.14,W,A
$GPGSA,A,1,,,,,,,,,,,,,1,1,1
$GPGGA,110,4046.42,N,4046.42,W,1,3,1.5,258.333738574,M,-32,M,,,A
$GPRMC,110,A,4046.42,N,4046.42,W,0.00,19.03,201527,1.14,W,A
$GPGSA,A,1,,,,,,,,,,,,,1,1,1
$GPGGA,111,4046.42,N,4046.42,W,1,3,1.5,258.333738574,M,-32,M,,,A
$GPRMC,111,A,4046.42,N,4046.42,W,0.00,19.03,201527,1.14,W,A
$GPGSA,A,1,,,,,,,,,,,,,1,1,1
$GPGGA,111,4046.42,N,4046.42,W,1,3,1.5,258.333738574,M,-32,M,,,A
$GPRMC,111,A,4046.42,N,4046.42,W,0.00,19.03,201527,1.14,W,A
$GPGSA,A,1,,,,,,,,,,,,,1,1,1
$GPGGA,112,4046.42,N,4046.42,W,1,3,1.5,258.333738574,M,-32,M,,,A
$GPRMC,112,A,4046.42,N,4046.42,W,0.00,19.03,201527,1.14,W,A
$GPGSA,A,1,,,,,,,,,,,,,1,1,1
$GPGGA,113,4046.42,N,4046.42,W,1,3,1.5,258.333738574,M,-32,M,,,A
$GPRMC,113,A,4046.42,N,4046.42,W,0.00,19.03,201527,1.14,W,A
$GPGSA,A,1,,,,,,,,,,,,,1,1,1
$GPGGA,114,4046.42,N,4046.42,W,1,3,1.5,258.333738574,M,-32,M,,,A
$GPRMC,114,A,4046.42,N,4046.42,W,0.00,19.03,201527,1.14,W,A
$GPGSA,A,1,,,,,,,,,,,,,1,1,1
$GPGGA,114,4046.42,N,4046.42,W,1,3,1.5,258.333738574,M,-32,M,,,A
$GPRMC,114,A,4046.42,N,4046.42,W,0.00,19.03,201527,1.14,W,A
$GPGSA,A,1,,,,,,,,,,,,,1,1,1
$GPGGA,115,4046.42,N,4046.42,W,1,3,1.5,258.333738574,M,-32,M,,,A
$GPRMC,115,A,4046.42,N,4046.42,W,0.00,19.03,201527,1.14,W,A
$GPGSA,A,1,,,,,,,,,,,,,1,1,1
$GPGGA,116,4046.42,N,4046.42,W,1,3,1.5,258.333738574,M,-32,M,,,A
$GPRMC,116,A,4046.42,N,4046.42,W,0.00,19.03,201527,1.14,W,A
$GPGSA,A,1,,,,,,,,,,,,,1,1,1
$GPGGA,116,4046.42,N,4046.42,W,1,3,1.5,258.333719971,M,-32,M,,,A
$GPRMC,116,A,4046.42,N,4046.42,W,0.00,19.03,201527,1.14,W,A
$GPGSA,A,1,,,,,,,,,,,,,1,1,1
$GPGGA,117,4046.42,N,4046.42,W,1,3,1.5,258.333719971,M,-32,M,,,A
$GPRMC,117,A,4046.42,N,4046.42,W,0.00,19.03,201527,1.14,W,A
$GPGSA,A,1,,,,,,,,,,,,,1,1,1
$GPGGA,118,4046.42,N,4046.42,W,1,3,1.5,258.333738574,M,-32,M,,,A
$GPRMC,118,A,4046.42,N,4046.42,W,0.00,19.03,201527,1.14,W,A
$GPGSA,A,1,,,,,,,,,,,,,1,1,1
$GPGGA,118,4046.42,N,4046.42,W,1,3,1.5,258.333738574,M,-32,M,,,A
$GPRMC,118,A,4046.42,N,4046.42,W,0.00,19.03,201527,1.14,W,A
$GPGSA,A,1,,,,,,,,,,,,,1,1,1
$GPGGA,119,4046.42,N,4046.42,W,1,3,1.5,258.333738574,M,-32,M,,,A
$GPRMC,119,A,4046.42,N,4046.42,W,0.00,19.03,201527,1.14,W,A
$GPGSA,A,1,,,,,,,,,,,,,1,1,1
$GPGGA,1110,4046.42,N,4046.42,W,1,3,1.5,258.333738574,M,-32,M,,,A
$GPRMC,1110,A,4046.42,N,4046.42,W,0.00,19.03,201527,1.14,W,A
$GPGSA,A,1,,,,,,,,,,,,,1,1,1
$GPGGA,1111,4046.42,N,4046.42,W,1,3,1.5,258.333738574,M,-32,M,,,A
$GPRMC,1111,A,4046.42,N,4046.42,W,0.00,19.03,201527,1.14,W,A
$GPGSA,A,1,,,,,,,,,,,,,1,1,1
$GPGGA,1111,4046.42,N,4046.42,W,1,3,1.5,258.333738574,M,-32,M,,,A
$GPRMC,1111,A,4046.42,N,4046.42,W,0.00,19.03,201527,1.14,W,A
$GPGSA,A,1,,,,,,,,,,,,,1,1,1
$GPGGA,1112,4046.42,N,4046.42,W,1,3,1.5,258.333738574,M,-32,M,,,A
$GPRMC,1112,A,4046.42,N,4046.42,W,0.00,19.03,201527,1.14,W,A
$GPGSA,A,1,,,,,,,,,,,,,1,1,1
$GPGGA,1113,4046.42,N,4046.42,W,1,3,1.5,258.333738574,M,-32,M,,,A
$GPRMC,1113,A,4046.42,N,4046.42,W,0.00,19.03,201527,1.14,W,A
$GPGSA,A,1,,,,,,,,,,,,,1,1,1
$GPGGA,1113,4046.42,N,4046.42,W,1,3,1.5,258.333738574,M,-32,M,,,A
$GPRMC,1113,A,4046.42,N,4046.42,W,0.00,19.03,201527,1.14,W,A
$GPGSA,A,1,,,,,,,,,,,,,1,1,1
$GPGGA,1114,4046.42,N,4046.42,W,1,3,1.5,258.333719971,M,-32,M,,,A
$GPRMC,1114,A,4046.42,N,4046.42,W,0.00,19.03,201527,1.14,W,A
$GPGSA,A,1,,,,,,,,,,,,,1,1,1
$GPGGA,1115,4046.42,N,4046.42,W,1,3,1.5,258.333719971,M,-32,M,,,A
$GPRMC,1115,A,4046.42,N,4046.42,W,0.00,19.03,201527,1.14,W,A
$GPGSA,A,1,,,,,,,,,,,,,1,1,1
$GPGGA,1115,4046.42,N,4046.42,W,1,3,1.5,258.333719971,M,-32,M,,,A
$GPRMC,1115,A,4046.42,N,4046.42,W,0.00,19.03,201527,1.14,W,A
$GPGSA,A,1,,,,,,,,,,,,,1,1,1
$GPGGA,1116,4046.42,N,4046.42,W,1,3,1.5,258.333738574,M,-32,M,,,A
$GPRMC,1116,A,4046.42,N,4046.42,W,0.00,19.03,201527,1.14,W,A
$GPGSA,A,1,,,,,,,,,,,,,1,1,1
$GPGGA,1117,4046.42,N,4046.42,W,1,3,1.5,258.333738574,M,-32,M,,,A
$GPRMC,1117,A,4046.42,N,4046.42,W,0.00,19.03,201527,1.14,W,A
$GPGSA,A,1,,,,,,,,,,,,,1,1,1
$GPGGA,1118,4046.42,N,4046.42,W,1,3,1.5,258.333738574,M,-32,M,,,A
$GPRMC,1118,A,4046.42,N,4046.42,W,0.00,19.03,201527,1.14,W,A
$GPGSA,A,1,,,,,,,,,,,,,1,1,1
$GPGGA,1118,4046.42,N,4046.42,W,1,3,1.5,258.333738574,M,-32,M,,,A
$GPRMC,1118,A,4046.42,N,4046.42,W,0.00,19.03,201527,1.14,W,A
$GPGSA,A,1,,,,,,,,,,,,,1,1,1
$GPGGA,1119,4046.42,N,4046.42,W,1,3,1.5,258.333738574,M,-32,M,,,A
$GPRMC,1119,A,4046.42,N,4046.42,W,0.00,19.03,201527,1.14,W,A
$GPGSA,A,1,,,,,,,,,,,,,1,1,1
$GPGGA,1120,4046.42,N,4046.42,W,1,3,1.5,258.333738574,M,-32,M,,,A
$GPRMC,1120,A,4046.42,N,4046.42,W,0.00,19.03,201527,1.14,W,A
$GPGSA,A,1,,,,,,,,,,,,,1,1,1
$GPGGA,1120,4046.42,N,4046.42,W,1,3,1.5,258.333738574,M,-32,M,,,A
$GPRMC,1120,A,4046.42,N,4046.42,W,0.00,19.03,201527,1.14,W,A
$GPGSA,A,1,,,,,,,,,,,,,1,1,1
$GPGGA,1121,4046.42,N,4046.42,W,1,3,1.5,258.333738574,M,-32,M,,,A
$GPRMC,1121,A,4046.42,N,4046.42,W,0.00,19.03,201527,1.14,W,A
$GPGSA,A,1,,,,,,,,,,,,,1,1,1
$GPGGA,1122,4046.42,N,4046.42,W,1,3,1.5,258.333738574,M,-32,M,,,A
$GPRMC,1122,A,4046.42,N,4046.42,W,0.00,19.03,201527,1.14,W,A
$GPGSA,A,1,,,,,,,,,,,,,1,1,1
$GPGGA,1122,4046.42,N,4046.42,W,1,3,1.5,258.333738574,M,-32,M,,,A
$GPRMC,1122,A,4046.42,N,4046.42,W,0.00,19.03,201527,1.14,W,A
$GPGSA,A,1,,,,,,,,,,,,,1,1,1
$GPGGA,1123,4046.42,N,4046.42,W,1,3,1.5,258.333719971,M,-32,M,,,A
$GPRMC,1123,A,4046.42,N,4046.42,W,0.00,19.03,201527,1.14,W,A
$GPGSA,A,1,,,,,,,,,,,,,1,1,1
$GPGGA,1124,4046.42,N,4046.42,W,1,3,1.5,258.333719971,M,-32,M,,,A
$GPRMC,1124,A,4046.42,N,4046.42,W,0.00,19.03,201527,1.14,W,A
$GPGSA,A,1,,,,,,,,,,,,,1,1,1
$GPGGA,1125,4046.42,N,4046.42,W,1,3,1.5,258.333719971,M,-32,M,,,A
$GPRMC,1125,A,4046.42,N,4046.42,W,0.00,19.03,201527,1.14,W,A
$GPGSA,A,1,,,,,,,,,,,,,1,1,1
$GPGGA,1125,4046.42,N,4046.42,W,1,3,1.5,258.333719971,M,-32,M,,,A
$GPRMC,1125,A,4046.42,N,4046.42,W,0.00,19.03,201527,1.14,W,A
$GPGSA,A,1,,,,,,,,,,,,,1,1,1
$GPGGA,1126,4046.42,N,4046.42,W,1,3,1.5,258.333738574,M,-32,M,,,A
$GPRMC,1126,A,4046.42,N,4046.42,W,0.00,19.03,201527,1.14,W,A
$GPGSA,A,1,,,,,,,,,,,,,1,1,1
$GPGGA,1127,4046.42,N,4046.42,W,1,3,1.5,258.333738574,M,-32,M,,,A
$GPRMC,1127,A,4046.42,N,4046.42,W,0.00,19.03,201527,1.14,W,A
$GPGSA,A,1,,,,,,,,,,,,,1,1,1
$GPGGA,1127,4046.42,N,4046.42,W,1,3,1.5,258.333738574,M,-32,M,,,A
$GPRMC,1127,A,4046.42,N,4046.42,W,0.00,19.03,201527,1.14,W,A
$GPGSA,A,1,,,,,,,,,,,,,1,1,1
$GPGGA,1128,4046.42,N,4046.42,W,1,3,1.5,258.333738574,M,-32,M,,,A
$GPRMC,1128,A,4046.42,N,4046.42,W,0.00,19.03,201527,1.14,W,A
$GPGSA,A,1,,,,,,,,,,,,,1,1,1
$GPGGA,1129,4046.42,N,4046.42,W,1,3,1.5,258.333738574,M,-32,M,,,A
$GPRMC,1129,A,4046.42,N,4046.42,W,0.00,19.03,201527,1.14,W,A
$GPGSA,A,1,,,,,,,,,,,,,1,1,1
$GPGGA,1129,4046.42,N,4046.42,W,1,3,1.5,258.333738574,M,-32,M,,,A
$GPRMC,1129,A,4046.42,N,4046.42,W,0.00,19.03,201527,1.14,W,A
$GPGSA,A,1,,,,,,,,,,,,,1,1,1
$GPGGA,1130,4046.42,N,4046.42,W,1,3,1.5,258.333738574,M,-32,M,,,A
$GPRMC,1130,A,4046.42,N,4046.42,W,0.00,19.03,201527,1.14,W,A
$GPGSA,A,1,,,,,,,,,,,,,1,1,1
$GPGGA,1131,4046.42,N,4046.42,W,1,3,1.5,258.333738574,M,-32,M,,,A
$GPRMC,1131,A,4046.42,N,4046.42,W,0.00,19.03,201527,1.14,W,A
$GPGSA,A,1,,,,,,,,,,,,,1,1,1
$GPGGA,1132,4046.42,N,4046.42,W,1,3,1.5,258.333738574,M,-32,M,,,A
$GPRMC,1132,A,4046.42,N,4046.42,W,0.00,19.03,201527,1.14,W,A
$GPGSA,A,1,,,,,,,,,,,,,1,1,1
$GPGGA,1132,4046.42,N,4046.42,W,1,3,1.5,258.333738574,M,-32,M,,,A
$GPRMC,1132,A,4046.42,N,4046.42,W,0.00,19.03,201527,1.14,W,A
$GPGSA,A,1,,,,,,,,,,,,,1,1,1
$GPGGA,1133,4046.42,N,4046.42,W,1,3,1.5,258.333738574,M,-32,M,,,A
$GPRMC,1133,A,4046.42,N,4046.42,W,0.00,19.03,201527,1.14,W,A
$GPGSA,A,1,,,,,,,,,,,,,1,1,1
$GPGGA,1134,4046.42,N,4046.42,W,1,3,1.5,258.333738574,M,-32,M,,,A
$GPRMC,1134,A,4046.42,N,4046.42,W,0.00,19.03,201527,1.14,W,A
$GPGSA,A,1,,,,,,,,,,,,,1,1,1
